{"tuStatus":[{"arrivalTime":{"name":"Zugestellt am","value":"19.11.2018 um 10:22 Uhr"},"deliveryOwnerCode":"DE03","history":[{"address":{"city":"Polch","countryCode":"DE","countryName":"Deutschland"},"date":"2018-11-19","time":"10:47:21","evtDscr":"Das Paket ist im GLS PaketShop eingetroffen."},{"address":{"city":"Brechen","countryCode":"DE","countryName":"Deutschland","name":"Gläser Tankstellen GmbH"},"date":"2018-11-19","time":"10:22:03","evtDscr":"Das Paket wurde im GLS PaketShop zugestellt (siehe PaketShop-Anzeige)."},{"address":{"city":"Polch","countryCode":"DE","countryName":"Deutschland"},"date":"2018-11-19","time":"10:20:25","evtDscr":"Das Paket konnte nicht zugestellt werden, da der Empfänger nicht angetroffen wurde."},{"address":{"city":"Polch","countryCode":"DE","countryName":"Deutschland"},"date":"2018-11-19","time":"06:40:20","evtDscr":"Das Paket wird voraussichtlich im Laufe des Tages zugestellt."},{"address":{"city":"Polch","countryCode":"DE","countryName":"Deutschland"},"date":"2018-11-19","time":"04:21:40","evtDscr":"Das Paket ist im Paketzentrum eingetroffen."},{"address":{"city":"Neuenstein","countryCode":"DE","countryName":"Deutschland"},"date":"2018-11-16","time":"22:38:00","evtDscr":"Das Paket ist im Paketzentrum eingetroffen."},{"address":{"city":"Polch","countryCode":"DE","countryName":"Deutschland"},"date":"2018-11-16","time":"16:25:52","evtDscr":"Das Paket befindet sich im Ziel-Paketzentrum. Es konnte nicht zugestellt werden, da der Empfänger nicht angetroffen wurde."},{"address":{"city":"Polch","countryCode":"DE","countryName":"Deutschland"},"date":"2018-11-16","time":"12:21:47","evtDscr":"Das Paket konnte nicht zugestellt werden, da der Empfänger nicht angetroffen wurde."},{"address":{"city":"Polch","countryCode":"DE","countryName":"Deutschland"},"date":"2018-11-16","time":"06:49:24","evtDscr":"Das Paket wird voraussichtlich im Laufe des Tages zugestellt."},{"address":{"city":"Polch","countryCode":"DE","countryName":"Deutschland"},"date":"2018-11-16","time":"04:50:51","evtDscr":"Das Paket ist im Paketzentrum eingetroffen."},{"address":{"city":"Neuenstein","countryCode":"DE","countryName":"Deutschland"},"date":"2018-11-16","time":"00:00:51","evtDscr":"Das Paket ist im Paketzentrum eingetroffen; das Paket wurde manuell sortiert."},{"address":{"city":"Neuenstein","countryCode":"DE","countryName":"Deutschland"},"date":"2018-11-16","time":"00:00:50","evtDscr":"Das Paket ist im Paketzentrum eingetroffen."},{"address":{"city":"Santa Perpètua de Mogoda","countryCode":"ES","countryName":"Spanien"},"date":"2018-11-15","time":"00:56:52","evtDscr":"Das Paket hat das Paketzentrum verlassen."},{"address":{"city":"San Juan de Mozarrifar","countryCode":"ES","countryName":"Spanien"},"date":"2018-11-14","time":"19:29:52","evtDscr":"Das Paket ist im Paketzentrum eingetroffen."},{"address":{"city":"San Juan de Mozarrifar","countryCode":"ES","countryName":"Spanien"},"date":"2018-11-14","time":"19:29:52","evtDscr":"Das Paket wurde an GLS übergeben."},{"address":{"city":"San Juan de Mozarrifar","countryCode":"ES","countryName":"Spanien"},"date":"2018-11-14","time":"14:09:06","evtDscr":"Die Paketdaten wurden im GLS IT-System erfasst; das Paket wurde noch nicht an GLS übergeben."}],"infos":[{"type":"WEIGHT","name":"Gewicht:","value":"0.2 kg"},{"type":"PRODUCT","name":"Produkt:","value":"EuroBusinessSmallParcel"}],"notificationCardId":"4V6YVD","owners":[{"type":"REQUEST","code":"ES01"},{"type":"DELIVERY","code":"DE03"}],"parcelShop":{"psNo":2003273262,"psID":"2760219021","address":{"postalArea":{"city":"Brechen","postalCode":"65611","postalCodeDisplay":"65611","countryCode":"DE","province":""},"phone":{"countryPrefix":"49","number":"06438836974"},"mobile":{"countryPrefix":"","number":""},"fax":{"countryPrefix":"49","number":"06438836975"},"gpsPos":{"latitude":"50.36158","longitude":"8.1707"},"name1":"Gläser Tankstellen GmbH","name2":"ARAL Tankstelle","street1":"Limburger Str.","street2":"","blockNo1":"15-19","blockNo2":""},"openingHours":[{"hours":"060000,,,210000","days":"Mo"},{"hours":"060000,,,210000","days":"Di"},{"hours":"060000,,,210000","days":"Mi"},{"hours":"060000,,,210000","days":"Do"},{"hours":"060000,,,210000","days":"Fr"},{"hours":"070000,,,210000","days":"Sa"},{"hours":"080000,,,210000","days":"So"}]},"progressBar":{"retourFlag":false,"statusText":"Zugestellt im PaketShop","statusInfo":"DELIVEREDPS","evtNos":["2.124","3.124","4.40","11.0","2.0","2.29","35.482","4.40","11.0","2.0","2.106","2.0","1.0","2.29","0.0","0.100"],"colourIndex":4,"level":75,"statusBar":[{"status":"PREADVICE","imageStatus":"COMPLETE","imageText":"Datenerfassung","statusText":""},{"status":"INTRANSIT","imageStatus":"COMPLETE","imageText":"Unterwegs","statusText":""},{"status":"INWAREHOUSE","imageStatus":"COMPLETE","imageText":"Ziel-Paketzentrum","statusText":""},{"status":"INDELIVERY","imageStatus":"COMPLETE","imageText":"In Zustellung","statusText":""},{"status":"DELIVEREDPS","imageStatus":"CURRENT","imageText":"Zugestellt","statusText":"Das Paket wurde erfolgreich im PaketShop zugestellt."}]},"references":[{"type":"UNITNO","name":"Paketnummer:","value":"32631986704"},{"type":"UNIQUENO","name":"Track ID","value":"Z51UTO9C"},{"type":"GLSREF","name":"Nationale Kundenreferenz","value":"320000433"},{"type":"NOTECARDID","name":"Track-ID","value":"4V6YVD"},{"type":"NOTECARDID","name":"Track-ID","value":"4UJRI8"}],"signature":{"name":"Unterschrift:","value":"true","validate":true},"tuNo":"32631986704","changeDeliveryPossible":false}]}